# 
# Header Description:
# 
# Version: v2.0.0.1 Platform: 7.1.1 Manufacturer: OnePlus Model: ONEPLUS A5000
# 
# Raw,ElapsedRealtimeMillis,TimeNanos,LeapSecond,TimeUncertaintyNanos,FullBiasNanos,BiasNanos,BiasUncertaintyNanos,DriftNanosPerSecond,DriftUncertaintyNanosPerSecond,HardwareClockDiscontinuityCount,Svid,TimeOffsetNanos,State,ReceivedSvTimeNanos,ReceivedSvTimeUncertaintyNanos,Cn0DbHz,PseudorangeRateMetersPerSecond,PseudorangeRateUncertaintyMetersPerSecond,AccumulatedDeltaRangeState,AccumulatedDeltaRangeMeters,AccumulatedDeltaRangeUncertaintyMeters,CarrierFrequencyHz,CarrierCycles,CarrierPhase,CarrierPhaseUncertainty,MultipathIndicator,SnrInDb,ConstellationType,AgcDb,CarrierFrequencyHz
# 
# Fix,Provider,Latitude,Longitude,Altitude,Speed,Accuracy,(UTC)TimeInMs
# 
# Nav,Svid,Type,Status,MessageId,Sub-messageId,Data(Bytes)
# 
Fix,gps,22.327171,114.256043,23.307068,1.950000,13.936001,1512624905000
Raw,918057360,1008267458000000,,,-1195651854979888640,0.0,139.35018796473742,-11.313689153393007,19.781691112666312,871,2,0.0,7183,365721354089817,89,16.8,-165.2510223388672,2.5235002040863037,0,0.0,0.0,,,,,0,,6,,
Raw,918057361,1008267458000000,,,-1195651854979888640,0.0,139.35018796473742,-11.313689153393007,19.781691112666312,871,3,0.0,7183,365721349199023,592,17.5,207.33447265625,4.212000370025635,0,0.0,0.0,,,,,0,,6,,
Raw,918057361,1008267458000000,,,-1195651854979888640,0.0,139.35018796473742,-11.313689153393007,19.781691112666312,871,7,0.0,7183,365721351282673,40,21.2,-168.48602294921875,0.6800000071525574,0,0.0,0.0,,,,,0,,6,,
Raw,918057362,1008267458000000,,,-1195651854979888640,0.0,139.35018796473742,-11.313689153393007,19.781691112666312,871,8,0.0,7183,365721362903310,70,17.3,28.762889862060547,0.9434999823570251,0,0.0,0.0,,,,,0,,6,,
Raw,918057362,1008267458000000,,,-1195651854979888640,0.0,139.35018796473742,-11.313689153393007,19.781691112666312,871,26,0.0,7183,365721354078983,265,15.7,-273.6327819824219,9.353500366210938,0,0.0,0.0,,,,,0,,6,,
Raw,918057363,1008267458000000,,,-1195651854979888640,0.0,139.35018796473742,-11.313689153393007,19.781691112666312,871,16,0.0,207,30904369951962,61,18.0,-478.5072937011719,1.2899999618530273,0,0.0,0.0,,,,,0,,3,,
Raw,918057363,1008267458000000,,,-1195651854979888640,0.0,139.35018796473742,-11.313689153393007,19.781691112666312,871,15,0.0,207,30904365667922,40,21.7,332.0921936035156,1.0540000200271606,0,0.0,0.0,,,,,0,,3,,
Raw,918057364,1008267458000000,,,-1195651854979888640,0.0,139.35018796473742,-11.313689153393007,19.781691112666312,871,5,0.0,207,30904366020078,70,19.0,78.81288146972656,3.4555001258850098,0,0.0,0.0,,,,,0,,3,,
Raw,918057365,1008267458000000,,,-1195651854979888640,0.0,139.35018796473742,-11.313689153393007,19.781691112666312,871,21,0.0,207,30904366426673,35,22.9,4.456942558288574,0.9954999685287476,0,0.0,0.0,,,,,0,,3,,
Raw,918057365,1008267458000000,,,-1195651854979888640,0.0,139.35018796473742,-11.313689153393007,19.781691112666312,871,5,0.0,15,365722355735375,43,22.8,397.1143493652344,2.249000072479248,0,0.0,0.0,,,,,0,,1,,
Raw,918057366,1008267458000000,,,-1195651854979888640,0.0,139.35018796473742,-11.313689153393007,19.781691112666312,871,10,0.0,15,365722355934450,494,15.0,-490.510498046875,14.129000663757324,0,0.0,0.0,,,,,0,,1,,
Raw,918057366,1008267458000000,,,-1195651854979888640,0.0,139.35018796473742,-11.313689153393007,19.781691112666312,871,13,0.0,15,365722356772592,61,18.7,518.3218994140625,1.0205000638961792,0,0.0,0.0,,,,,0,,1,,
Raw,918057367,1008267458000000,,,-1195651854979888640,0.0,139.35018796473742,-11.313689153393007,19.781691112666312,871,15,0.0,15,365722364661333,24,25.7,373.08026123046875,0.5824999809265137,0,0.0,0.0,,,,,0,,1,,
Raw,918057367,1008267458000000,,,-1195651854979888640,0.0,139.35018796473742,-11.313689153393007,19.781691112666312,871,18,0.0,15,365722363156654,35,22.0,-397.5615234375,0.7910000085830688,0,0.0,0.0,,,,,0,,1,,
Raw,918057368,1008267458000000,,,-1195651854979888640,0.0,139.35018796473742,-11.313689153393007,19.781691112666312,871,20,0.0,15,365722368366602,320,19.8,88.72442626953125,11.428500175476074,0,0.0,0.0,,,,,0,,1,,
Raw,918057368,1008267458000000,,,-1195651854979888640,0.0,139.35018796473742,-11.313689153393007,19.781691112666312,871,21,0.0,15,365722367223643,24,25.7,-178.42886352539062,0.5870000123977661,0,0.0,0.0,,,,,0,,1,,
Raw,918057369,1008267458000000,,,-1195651854979888640,0.0,139.35018796473742,-11.313689153393007,19.781691112666312,871,24,0.0,15,365722370550691,61,18.7,-38.17291259765625,1.0115000009536743,0,0.0,0.0,,,,,0,,1,,
Raw,918057369,1008267458000000,,,-1195651854979888640,0.0,139.35018796473742,-11.313689153393007,19.781691112666312,871,193,0.0,15,365722309146871,64,18.9,-206.61135864257812,1.7600001096725464,0,0.0,0.0,,,,,0,,4,,
Raw,918057370,1008267458000000,,,-1195651854979888640,0.0,139.35018796473742,-11.313689153393007,19.781691112666312,871,194,0.0,15,365722313759125,96,15.9,86.70730590820312,2.0260000228881836,0,0.0,0.0,,,,,0,,4,,
Raw,918057370,1008267458000000,,,-1195651854979888640,0.0,139.35018796473742,-11.313689153393007,19.781691112666312,871,1,0.0,783,365708314268208,466,19.7,-3.3894968032836914,4.833500385284424,0,0.0,0.0,,,,,0,,5,,
Raw,918057371,1008267458000000,,,-1195651854979888640,0.0,139.35018796473742,-11.313689153393007,19.781691112666312,871,2,0.0,783,365708313676646,317,22.2,0.9794013500213623,4.635000228881836,0,0.0,0.0,,,,,0,,5,,
Raw,918057371,1008267458000000,,,-1195651854979888640,0.0,139.35018796473742,-11.313689153393007,19.781691112666312,871,3,0.0,783,365708316495851,87,22.1,-6.202875137329102,5.143500328063965,0,0.0,0.0,,,,,0,,5,,
Raw,918057372,1008267458000000,,,-1195651854979888640,0.0,139.35018796473742,-11.313689153393007,19.781691112666312,871,4,0.0,783,365708309574619,375,17.7,-1.85318124294281,12.165000915527344,0,0.0,0.0,,,,,0,,5,,
Raw,918057372,1008267458000000,,,-1195651854979888640,0.0,139.35018796473742,-11.313689153393007,19.781691112666312,871,5,0.0,783,365708307149031,153,18.1,-6.884616374969482,6.875000476837158,0,0.0,0.0,,,,,0,,5,,
Raw,918057373,1008267458000000,,,-1195651854979888640,0.0,139.35018796473742,-11.313689153393007,19.781691112666312,871,6,0.0,15,365708313523947,89,16.2,14.806243896484375,2.5160000324249268,0,0.0,0.0,,,,,0,,5,,
Raw,918057373,1008267458000000,,,-1195651854979888640,0.0,139.35018796473742,-11.313689153393007,19.781691112666312,871,8,0.0,15,365708311090607,55,23.2,322.1846618652344,3.5930001735687256,0,0.0,0.0,,,,,0,,5,,
Raw,918057374,1008267458000000,,,-1195651854979888640,0.0,139.35018796473742,-11.313689153393007,19.781691112666312,871,9,0.0,15,365708312695572,109,17.3,42.123863220214844,4.684500217437744,0,0.0,0.0,,,,,0,,5,,
Raw,918057374,1008267458000000,,,-1195651854979888640,0.0,139.35018796473742,-11.313689153393007,19.781691112666312,871,10,0.0,15,365708305554320,837,15.3,-255.72938537597656,6.979000091552734,0,0.0,0.0,,,,,0,,5,,
Raw,918057375,1008267458000000,,,-1195651854979888640,0.0,139.35018796473742,-11.313689153393007,19.781691112666312,871,13,0.0,15,365708314766826,27,24.8,270.8813171386719,0.5475000143051147,0,0.0,0.0,,,,,0,,5,,
Raw,918057375,1008267458000000,,,-1195651854979888640,0.0,139.35018796473742,-11.313689153393007,19.781691112666312,871,14,0.0,15,365708358251068,86,17.2,161.66845703125,3.19350004196167,0,0.0,0.0,,,,,0,,5,,
Fix,gps,22.327159,114.256073,20.536438,1.770000,16.080000,1512624906000
Raw,918058359,1008268458000000,,,-1195651854979888640,0.0,131.26741396263242,-5.766672178045421,13.148674842297199,871,2,0.0,7183,365722354090503,84,16.9,-166.12637329101562,1.7735000848770142,0,0.0,0.0,,,,,0,,6,,
Raw,918058359,1008268458000000,,,-1195651854979888640,0.0,131.26741396263242,-5.766672178045421,13.148674842297199,871,3,0.0,7183,365722349198334,692,16.6,207.34397888183594,5.0420002937316895,0,0.0,0.0,,,,,0,,6,,
Raw,918058359,1008268458000000,,,-1195651854979888640,0.0,131.26741396263242,-5.766672178045421,13.148674842297199,871,7,0.0,7183,365722351283275,40,21.6,-166.19297790527344,0.6949999928474426,0,0.0,0.0,,,,,0,,6,,
Raw,918058360,1008268458000000,,,-1195651854979888640,0.0,131.26741396263242,-5.766672178045421,13.148674842297199,871,8,0.0,7183,365722362903185,70,17.6,27.30714225769043,0.9434999823570251,0,0.0,0.0,,,,,0,,6,,
Raw,918058360,1008268458000000,,,-1195651854979888640,0.0,131.26741396263242,-5.766672178045421,13.148674842297199,871,26,0.0,7183,365722354079896,329,15.7,-273.6327819824219,10.853500366210938,0,0.0,0.0,,,,,0,,6,,
Raw,918058360,1008268458000000,,,-1195651854979888640,0.0,131.26741396263242,-5.766672178045421,13.148674842297199,871,16,0.0,207,30905369953414,53,19.7,-478.7225646972656,1.2100000381469727,0,0.0,0.0,,,,,0,,3,,
Raw,918058360,1008268458000000,,,-1195651854979888640,0.0,131.26741396263242,-5.766672178045421,13.148674842297199,871,15,0.0,207,30905365667069,31,23.5,333.1401672363281,0.9339999556541443,0,0.0,0.0,,,,,0,,3,,
Raw,918058361,1008268458000000,,,-1195651854979888640,0.0,131.26741396263242,-5.766672178045421,13.148674842297199,871,5,0.0,207,30905366019706,84,16.5,81.42251586914062,2.2155001163482666,0,0.0,0.0,,,,,0,,3,,
Raw,918058361,1008268458000000,,,-1195651854979888640,0.0,131.26741396263242,-5.766672178045421,13.148674842297199,871,21,0.0,207,30905366426421,35,22.0,7.474956035614014,0.9954999685287476,0,0.0,0.0,,,,,0,,3,,
Raw,918058361,1008268458000000,,,-1195651854979888640,0.0,131.26741396263242,-5.766672178045421,13.148674842297199,871,5,0.0,15,365723355734047,49,20.6,396.4102783203125,1.6190000772476196,0,0.0,0.0,,,,,0,,1,,
Raw,918058361,1008268458000000,,,-1195651854979888640,0.0,131.26741396263242,-5.766672178045421,13.148674842297199,871,10,0.0,15,365723355935613,263,11.5,-486.74267578125,7.749000549316406,0,0.0,0.0,,,,,0,,1,,
Raw,918058362,1008268458000000,,,-1195651854979888640,0.0,131.26741396263242,-5.766672178045421,13.148674842297199,871,13,0.0,15,365723356770686,40,21.4,519.7871704101562,0.8704999685287476,0,0.0,0.0,,,,,0,,1,,
Raw,918058362,1008268458000000,,,-1195651854979888640,0.0,131.26741396263242,-5.766672178045421,13.148674842297199,871,15,0.0,15,365723364660238,35,22.9,374.0602722167969,0.7324999570846558,0,0.0,0.0,,,,,0,,1,,
Raw,918058362,1008268458000000,,,-1195651854979888640,0.0,131.26741396263242,-5.766672178045421,13.148674842297199,871,18,0.0,15,365723363157878,40,21.6,-396.7908630371094,0.7910000085830688,0,0.0,0.0,,,,,0,,1,,
Raw,918058362,1008268458000000,,,-1195651854979888640,0.0,131.26741396263242,-5.766672178045421,13.148674842297199,871,20,0.0,15,365723368366306,399,19.8,88.72442626953125,12.928500175476074,0,0.0,0.0,,,,,0,,1,,
Raw,918058363,1008268458000000,,,-1195651854979888640,0.0,131.26741396263242,-5.766672178045421,13.148674842297199,871,21,0.0,15,365723367224195,31,23.0,-176.85894775390625,0.7369999885559082,0,0.0,0.0,,,,,0,,1,,
Raw,918058363,1008268458000000,,,-1195651854979888640,0.0,131.26741396263242,-5.766672178045421,13.148674842297199,871,24,0.0,15,365723370550856,40,21.3,-38.32514572143555,0.8614999651908875,0,0.0,0.0,,,,,0,,1,,
Raw,918058363,1008268458000000,,,-1195651854979888640,0.0,131.26741396263242,-5.766672178045421,13.148674842297199,871,193,0.0,15,365723309147629,46,20.3,-206.04046630859375,0.9300000071525574,0,0.0,0.0,,,,,0,,4,,
Raw,918058363,1008268458000000,,,-1195651854979888640,0.0,131.26741396263242,-5.766672178045421,13.148674842297199,871,194,0.0,15,365723313759010,80,16.7,88.04888153076172,1.1859999895095825,0,0.0,0.0,,,,,0,,4,,
Raw,918058364,1008268458000000,,,-1195651854979888640,0.0,131.26741396263242,-5.766672178045421,13.148674842297199,871,1,0.0,783,365709314268215,376,21.4,-4.628151893615723,5.463500022888184,0,0.0,0.0,,,,,0,,5,,
Raw,918058364,1008268458000000,,,-1195651854979888640,0.0,131.26741396263242,-5.766672178045421,13.148674842297199,871,2,0.0,783,365709313676628,375,21.6,3.130244016647339,5.435000419616699,0,0.0,0.0,,,,,0,,5,,
Raw,918058364,1008268458000000,,,-1195651854979888640,0.0,131.26741396263242,-5.766672178045421,13.148674842297199,871,3,0.0,783,365709316495846,38,23.5,2.371687889099121,2.1035001277923584,0,0.0,0.0,,,,,0,,5,,
Raw,918058364,1008268458000000,,,-1195651854979888640,0.0,131.26741396263242,-5.766672178045421,13.148674842297199,871,4,0.0,783,365709309574558,76,18.1,5.204270362854004,3.0950000286102295,0,0.0,0.0,,,,,0,,5,,
Raw,918058364,1008268458000000,,,-1195651854979888640,0.0,131.26741396263242,-5.766672178045421,13.148674842297199,871,5,0.0,783,365709307148918,38,23.5,7.086257457733154,2.1050000190734863,0,0.0,0.0,,,,,0,,5,,
Raw,918058365,1008268458000000,,,-1195651854979888640,0.0,131.26741396263242,-5.766672178045421,13.148674842297199,871,6,0.0,15,365709313523968,53,19.0,16.18893051147461,0.8059999942779541,0,0.0,0.0,,,,,0,,5,,
Raw,918058365,1008268458000000,,,-1195651854979888640,0.0,131.26741396263242,-5.766672178045421,13.148674842297199,871,8,0.0,15,365709311089532,82,23.2,322.1846618652344,5.093000411987305,0,0.0,0.0,,,,,0,,5,,
Raw,918058365,1008268458000000,,,-1195651854979888640,0.0,131.26741396263242,-5.766672178045421,13.148674842297199,871,9,0.0,15,365709312695577,89,16.8,45.3309211730957,2.514500141143799,0,0.0,0.0,,,,,0,,5,,
Raw,918058365,1008268458000000,,,-1195651854979888640,0.0,131.26741396263242,-5.766672178045421,13.148674842297199,871,10,0.0,15,365709305555173,885,15.3,-255.72938537597656,8.479000091552734,0,0.0,0.0,,,,,0,,5,,
Raw,918058366,1008268458000000,,,-1195651854979888640,0.0,131.26741396263242,-5.766672178045421,13.148674842297199,871,13,0.0,15,365709314765926,21,26.9,271.9537048339844,0.13220000267028809,0,0.0,0.0,,,,,0,,5,,
Raw,918058366,1008268458000000,,,-1195651854979888640,0.0,131.26741396263242,-5.766672178045421,13.148674842297199,871,14,0.0,15,365709358250528,109,17.2,161.66845703125,4.69350004196167,0,0.0,0.0,,,,,0,,5,,
Fix,gps,22.327127,114.256131,14.673401,2.480000,16.080000,1512624907000
Raw,918059379,1008269458000000,,,-1195651854979888640,0.0,140.41337999515235,-3.3229705705196695,16.89496117146632,871,2,0.0,7183,365723354091057,97,16.9,-166.12637329101562,3.2735002040863037,0,0.0,0.0,,,,,0,,6,,
Raw,918059379,1008269458000000,,,-1195651854979888640,0.0,140.41337999515235,-3.3229705705196695,16.89496117146632,871,3,0.0,7183,365723349197638,709,16.1,207.7245635986328,5.7920002937316895,0,0.0,0.0,,,,,0,,6,,
Raw,918059379,1008269458000000,,,-1195651854979888640,0.0,140.41337999515235,-3.3229705705196695,16.89496117146632,871,7,0.0,7183,365723351283836,61,18.8,-164.32809448242188,0.875,0,0.0,0.0,,,,,0,,6,,
Raw,918059380,1008269458000000,,,-1195651854979888640,0.0,140.41337999515235,-3.3229705705196695,16.89496117146632,871,8,0.0,7183,365723362903197,80,16.4,27.46889305114746,1.0234999656677246,0,0.0,0.0,,,,,0,,6,,
Raw,918059380,1008269458000000,,,-1195651854979888640,0.0,140.41337999515235,-3.3229705705196695,16.89496117146632,871,26,0.0,7183,365723354080809,403,15.7,-273.6327819824219,12.353500366210938,0,0.0,0.0,,,,,0,,6,,
Raw,918059380,1008269458000000,,,-1195651854979888640,0.0,140.41337999515235,-3.3229705705196695,16.89496117146632,871,16,0.0,207,30906369955205,31,23.0,-478.8910827636719,0.9399999976158142,0,0.0,0.0,,,,,0,,3,,
Raw,918059381,1008269458000000,,,-1195651854979888640,0.0,140.41337999515235,-3.3229705705196695,16.89496117146632,871,15,0.0,207,30906365665925,40,21.6,333.34600830078125,1.0540000200271606,0,0.0,0.0,,,,,0,,3,,
Raw,918059381,1008269458000000,,,-1195651854979888640,0.0,140.41337999515235,-3.3229705705196695,16.89496117146632,871,5,0.0,207,30906366019536,46,20.3,80.98289489746094,1.1255000829696655,0,0.0,0.0,,,,,0,,3,,
Raw,918059381,1008269458000000,,,-1195651854979888640,0.0,140.41337999515235,-3.3229705705196695,16.89496117146632,871,21,0.0,207,30906366426548,53,19.6,9.175508499145508,1.2055001258850098,0,0.0,0.0,,,,,0,,3,,
Raw,918059382,1008269458000000,,,-1195651854979888640,0.0,140.41337999515235,-3.3229705705196695,16.89496117146632,871,5,0.0,15,365724355732757,35,22.7,395.98211669921875,0.7489999532699585,0,0.0,0.0,,,,,0,,1,,
Raw,918059382,1008269458000000,,,-1195651854979888640,0.0,140.41337999515235,-3.3229705705196695,16.89496117146632,871,10,0.0,15,365724355937236,314,11.5,-486.74267578125,9.249000549316406,0,0.0,0.0,,,,,0,,1,,
Raw,918059382,1008269458000000,,,-1195651854979888640,0.0,140.41337999515235,-3.3229705705196695,16.89496117146632,871,13,0.0,15,365724356769033,53,19.9,519.520751953125,0.9404999613761902,0,0.0,0.0,,,,,0,,1,,
Raw,918059383,1008269458000000,,,-1195651854979888640,0.0,140.41337999515235,-3.3229705705196695,16.89496117146632,871,15,0.0,15,365724364658888,27,24.2,373.8319091796875,0.67249995470047,0,0.0,0.0,,,,,0,,1,,
Raw,918059383,1008269458000000,,,-1195651854979888640,0.0,140.41337999515235,-3.3229705705196695,16.89496117146632,871,18,0.0,15,365724363159196,40,21.6,-395.5824890136719,0.7910000085830688,0,0.0,0.0,,,,,0,,1,,
Raw,918059383,1008269458000000,,,-1195651854979888640,0.0,140.41337999515235,-3.3229705705196695,16.89496117146632,871,20,0.0,15,365724368366010,487,19.8,88.72442626953125,14.428500175476074,0,0.0,0.0,,,,,0,,1,,
Raw,918059384,1008269458000000,,,-1195651854979888640,0.0,140.41337999515235,-3.3229705705196695,16.89496117146632,871,21,0.0,15,365724367224771,31,23.9,-174.8798828125,0.6769999861717224,0,0.0,0.0,,,,,0,,1,,
Raw,918059384,1008269458000000,,,-1195651854979888640,0.0,140.41337999515235,-3.3229705705196695,16.89496117146632,871,24,0.0,15,365724370551053,40,21.2,-36.70764923095703,0.8614999651908875,0,0.0,0.0,,,,,0,,1,,
Raw,918059384,1008269458000000,,,-1195651854979888640,0.0,140.41337999515235,-3.3229705705196695,16.89496117146632,871,193,0.0,15,365724309148425,40,21.7,-205.8121337890625,0.800000011920929,0,0.0,0.0,,,,,0,,4,,
Raw,918059385,1008269458000000,,,-1195651854979888640,0.0,140.41337999515235,-3.3229705705196695,16.89496117146632,871,194,0.0,15,365724313758743,80,16.6,86.53604888916016,1.1859999895095825,0,0.0,0.0,,,,,0,,4,,
Raw,918059385,1008269458000000,,,-1195651854979888640,0.0,140.41337999515235,-3.3229705705196695,16.89496117146632,871,1,0.0,783,365710314268240,395,21.9,-5.4923295974731445,6.213500022888184,0,0.0,0.0,,,,,0,,5,,
Raw,918059385,1008269458000000,,,-1195651854979888640,0.0,140.41337999515235,-3.3229705705196695,16.89496117146632,871,2,0.0,783,365710313676622,443,20.9,3.8887996673583984,6.24500036239624,0,0.0,0.0,,,,,0,,5,,
Raw,918059386,1008269458000000,,,-1195651854979888640,0.0,140.41337999515235,-3.3229705705196695,16.89496117146632,871,3,0.0,783,365710316495838,55,23.5,2.371687889099121,3.6035001277923584,0,0.0,0.0,,,,,0,,5,,
Raw,918059386,1008269458000000,,,-1195651854979888640,0.0,140.41337999515235,-3.3229705705196695,16.89496117146632,871,4,0.0,783,365710309574540,99,18.1,5.204270362854004,4.595000267028809,0,0.0,0.0,,,,,0,,5,,
Raw,918059386,1008269458000000,,,-1195651854979888640,0.0,140.41337999515235,-3.3229705705196695,16.89496117146632,871,5,0.0,783,365710307148894,55,23.5,7.086257457733154,3.6050002574920654,0,0.0,0.0,,,,,0,,5,,
Raw,918059387,1008269458000000,,,-1195651854979888640,0.0,140.41337999515235,-3.3229705705196695,16.89496117146632,871,6,0.0,15,365710313523914,61,19.0,16.18893051147461,2.305999994277954,0,0.0,0.0,,,,,0,,5,,
Raw,918059387,1008269458000000,,,-1195651854979888640,0.0,140.41337999515235,-3.3229705705196695,16.89496117146632,871,8,0.0,15,365710311088457,119,23.2,322.1846618652344,6.593000411987305,0,0.0,0.0,,,,,0,,5,,
Raw,918059387,1008269458000000,,,-1195651854979888640,0.0,140.41337999515235,-3.3229705705196695,16.89496117146632,871,9,0.0,15,365710312695403,40,21.2,46.20470428466797,0.684499979019165,0,0.0,0.0,,,,,0,,5,,
Raw,918059388,1008269458000000,,,-1195651854979888640,0.0,140.41337999515235,-3.3229705705196695,16.89496117146632,871,10,0.0,15,365710305556026,943,15.3,-255.72938537597656,9.979000091552734,0,0.0,0.0,,,,,0,,5,,
Raw,918059388,1008269458000000,,,-1195651854979888640,0.0,140.41337999515235,-3.3229705705196695,16.89496117146632,871,13,0.0,15,365710314765012,21,26.7,273.3072204589844,0.13220000267028809,0,0.0,0.0,,,,,0,,5,,
Raw,918059388,1008269458000000,,,-1195651854979888640,0.0,140.41337999515235,-3.3229705705196695,16.89496117146632,871,14,0.0,15,365710358250072,89,16.8,160.02650451660156,2.5235002040863037,0,0.0,0.0,,,,,0,,5,,
Fix,gps,22.327116,114.256178,8.484009,2.350000,16.080000,1512624908000
Raw,918060352,1008270458000000,,,-1195651854979888640,0.0,141.8777392245829,-1.250303094898322,16.90653565877462,871,2,0.0,7183,365724354091599,110,14.5,-167.7724151611328,1.94350004196167,0,0.0,0.0,,,,,0,,6,,
Raw,918060352,1008270458000000,,,-1195651854979888640,0.0,141.8777392245829,-1.250303094898322,16.90653565877462,871,3,0.0,7183,365724349196957,827,15.7,207.75311279296875,6.622000217437744,0,0.0,0.0,,,,,0,,6,,
Raw,918060353,1008270458000000,,,-1195651854979888640,0.0,141.8777392245829,-1.250303094898322,16.90653565877462,871,7,0.0,7183,365724351283892,46,20.3,-169.9893341064453,0.7549999952316284,0,0.0,0.0,,,,,0,,6,,
Raw,918060353,1008270458000000,,,-1195651854979888640,0.0,141.8777392245829,-1.250303094898322,16.90653565877462,871,8,0.0,7183,365724362903087,70,17.6,31.03689956665039,0.9434999823570251,0,0.0,0.0,,,,,0,,6,,
Raw,918060355,1008270458000000,,,-1195651854979888640,0.0,141.8777392245829,-1.250303094898322,16.90653565877462,871,26,0.0,7183,365724354081760,182,14.1,-269.6746826171875,6.44350004196167,0,0.0,0.0,,,,,0,,6,,
Raw,918060355,1008270458000000,,,-1195651854979888640,0.0,141.8777392245829,-1.250303094898322,16.90653565877462,871,30,0.0,7183,365724357957391,566,18.3,-502.1659851074219,6.392000198364258,0,0.0,0.0,,,,,0,,6,,
Raw,918060356,1008270458000000,,,-1195651854979888640,0.0,141.8777392245829,-1.250303094898322,16.90653565877462,871,16,0.0,207,30907369956669,35,22.9,-479.15313720703125,1.0,0,0.0,0.0,,,,,0,,3,,
Raw,918060356,1008270458000000,,,-1195651854979888640,0.0,141.8777392245829,-1.250303094898322,16.90653565877462,871,15,0.0,207,30907365664856,53,19.7,333.9822998046875,1.2040001153945923,0,0.0,0.0,,,,,0,,3,,
Raw,918060356,1008270458000000,,,-1195651854979888640,0.0,141.8777392245829,-1.250303094898322,16.90653565877462,871,5,0.0,207,30907366019245,40,21.0,82.3952865600586,1.0555000305175781,0,0.0,0.0,,,,,0,,3,,
Raw,918060356,1008270458000000,,,-1195651854979888640,0.0,141.8777392245829,-1.250303094898322,16.90653565877462,871,21,0.0,207,30907366426340,31,23.0,7.054489612579346,0.9354999661445618,0,0.0,0.0,,,,,0,,3,,
Raw,918060357,1008270458000000,,,-1195651854979888640,0.0,141.8777392245829,-1.250303094898322,16.90653565877462,871,5,0.0,15,365725355731423,31,23.8,394.9355163574219,0.6889999508857727,0,0.0,0.0,,,,,0,,1,,
Raw,918060357,1008270458000000,,,-1195651854979888640,0.0,141.8777392245829,-1.250303094898322,16.90653565877462,871,10,0.0,15,365725355938860,375,11.5,-486.74267578125,10.749000549316406,0,0.0,0.0,,,,,0,,1,,
Raw,918060357,1008270458000000,,,-1195651854979888640,0.0,141.8777392245829,-1.250303094898322,16.90653565877462,871,13,0.0,15,365725356767300,61,19.9,519.520751953125,2.440500020980835,0,0.0,0.0,,,,,0,,1,,
Raw,918060358,1008270458000000,,,-1195651854979888640,0.0,141.8777392245829,-1.250303094898322,16.90653565877462,871,15,0.0,15,365725364657869,21,26.0,374.2122497558594,0.11720000207424164,0,0.0,0.0,,,,,0,,1,,
Raw,918060358,1008270458000000,,,-1195651854979888640,0.0,141.8777392245829,-1.250303094898322,16.90653565877462,871,18,0.0,15,365725363160451,53,19.8,-393.9459533691406,0.9210000038146973,0,0.0,0.0,,,,,0,,1,,
Raw,918060358,1008270458000000,,,-1195651854979888640,0.0,141.8777392245829,-1.250303094898322,16.90653565877462,871,20,0.0,15,365725368365714,585,19.8,88.72442626953125,15.92850112915039,0,0.0,0.0,,,,,0,,1,,
Raw,918060358,1008270458000000,,,-1195651854979888640,0.0,141.8777392245829,-1.250303094898322,16.90653565877462,871,21,0.0,15,365725367225405,53,19.0,-173.8427734375,1.0069999694824219,0,0.0,0.0,,,,,0,,1,,
Raw,918060358,1008270458000000,,,-1195651854979888640,0.0,141.8777392245829,-1.250303094898322,16.90653565877462,871,24,0.0,15,365725370551069,35,22.8,-37.10726547241211,0.7414999604225159,0,0.0,0.0,,,,,0,,1,,
Raw,918060359,1008270458000000,,,-1195651854979888640,0.0,141.8777392245829,-1.250303094898322,16.90653565877462,871,193,0.0,15,365725309149039,53,19.2,-205.7740478515625,1.0099999904632568,0,0.0,0.0,,,,,0,,4,,
Raw,918060359,1008270458000000,,,-1195651854979888640,0.0,141.8777392245829,-1.250303094898322,16.90653565877462,871,194,0.0,15,365725313758454,90,16.6,86.53604888916016,2.686000108718872,0,0.0,0.0,,,,,0,,4,,
Fix,gps,22.327112,114.256224,4.853363,3.880000,15.008000,1512624909000
Raw,918061313,1008271458000000,,,-1195651854979888640,0.0,144.44603584706783,-3.4856858010410736,19.54460419447373,871,2,0.0,7183,365725354092170,61,18.0,-165.45083618164062,0.8734999895095825,0,0.0,0.0,,,,,0,,6,,
Raw,918061314,1008271458000000,,,-1195651854979888640,0.0,144.44603584706783,-3.4856858010410736,19.54460419447373,871,3,0.0,7183,365725349196268,849,15.5,207.4581756591797,7.372000217437744,0,0.0,0.0,,,,,0,,6,,
Raw,918061315,1008271458000000,,,-1195651854979888640,0.0,144.44603584706783,-3.4856858010410736,19.54460419447373,871,7,0.0,7183,365725351284480,35,22.3,-169.29476928710938,0.6450000405311584,0,0.0,0.0,,,,,0,,6,,
Raw,918061315,1008271458000000,,,-1195651854979888640,0.0,144.44603584706783,-3.4856858010410736,19.54460419447373,871,8,0.0,7183,365725362903037,80,16.9,32.407012939453125,1.0234999656677246,0,0.0,0.0,,,,,0,,6,,
Raw,918061315,1008271458000000,,,-1195651854979888640,0.0,144.44603584706783,-3.4856858010410736,19.54460419447373,871,26,0.0,7183,365725354082660,226,14.1,-269.6746826171875,7.943500518798828,0,0.0,0.0,,,,,0,,6,,
Raw,918061315,1008271458000000,,,-1195651854979888640,0.0,144.44603584706783,-3.4856858010410736,19.54460419447373,871,30,0.0,7183,365725357959131,19,27.7,-502.13134765625,0.05780000239610672,0,0.0,0.0,,,,,0,,6,,
Raw,918061316,1008271458000000,,,-1195651854979888640,0.0,144.44603584706783,-3.4856858010410736,19.54460419447373,871,16,0.0,207,30908369958387,27,24.5,-478.6663818359375,0.8799999952316284,0,0.0,0.0,,,,,0,,3,,
Raw,918061316,1008271458000000,,,-1195651854979888640,0.0,144.44603584706783,-3.4856858010410736,19.54460419447373,871,15,0.0,207,30908365663742,62,19.7,333.9822998046875,2.704000234603882,0,0.0,0.0,,,,,0,,3,,
Raw,918061316,1008271458000000,,,-1195651854979888640,0.0,144.44603584706783,-3.4856858010410736,19.54460419447373,871,5,0.0,207,30908366019081,46,20.6,80.49652099609375,1.1255000829696655,0,0.0,0.0,,,,,0,,3,,
Raw,918061317,1008271458000000,,,-1195651854979888640,0.0,144.44603584706783,-3.4856858010410736,19.54460419447373,871,21,0.0,207,30908366426190,31,23.3,3.7655088901519775,0.9354999661445618,0,0.0,0.0,,,,,0,,3,,
Raw,918061317,1008271458000000,,,-1195651854979888640,0.0,144.44603584706783,-3.4856858010410736,19.54460419447373,871,5,0.0,15,365726355730108,40,21.4,394.46923828125,0.8689999580383301,0,0.0,0.0,,,,,0,,1,,
Raw,918061317,1008271458000000,,,-1195651854979888640,0.0,144.44603584706783,-3.4856858010410736,19.54460419447373,871,10,0.0,15,365726355940484,446,11.5,-486.74267578125,12.249000549316406,0,0.0,0.0,,,,,0,,1,,
Raw,918061318,1008271458000000,,,-1195651854979888640,0.0,144.44603584706783,-3.4856858010410736,19.54460419447373,871,13,0.0,15,365726356765550,84,16.4,523.650146484375,2.0304999351501465,0,0.0,0.0,,,,,0,,1,,
Raw,918061318,1008271458000000,,,-1195651854979888640,0.0,144.44603584706783,-3.4856858010410736,19.54460419447373,871,15,0.0,15,365726364656583,19,27.0,373.74627685546875,0.5324999690055847,0,0.0,0.0,,,,,0,,1,,
Raw,918061318,1008271458000000,,,-1195651854979888640,0.0,144.44603584706783,-3.4856858010410736,19.54460419447373,871,18,0.0,15,365726363161768,70,17.2,-393.3370056152344,1.1710000038146973,0,0.0,0.0,,,,,0,,1,,
Raw,918061318,1008271458000000,,,-1195651854979888640,0.0,144.44603584706783,-3.4856858010410736,19.54460419447373,871,20,0.0,15,365726368365418,693,19.8,88.72442626953125,17.42850112915039,0,0.0,0.0,,,,,0,,1,,
Raw,918061319,1008271458000000,,,-1195651854979888640,0.0,144.44603584706783,-3.4856858010410736,19.54460419447373,871,21,0.0,15,365726367225985,61,19.0,-173.8427734375,2.507000207901001,0,0.0,0.0,,,,,0,,1,,
Raw,918061319,1008271458000000,,,-1195651854979888640,0.0,144.44603584706783,-3.4856858010410736,19.54460419447373,871,24,0.0,15,365726370551173,35,22.5,-37.04066467285156,0.7414999604225159,0,0.0,0.0,,,,,0,,1,,
Raw,918061319,1008271458000000,,,-1195651854979888640,0.0,144.44603584706783,-3.4856858010410736,19.54460419447373,871,193,0.0,15,365726309149829,46,20.5,-206.65892028808594,0.8600000143051147,0,0.0,0.0,,,,,0,,4,,
Raw,918061320,1008271458000000,,,-1195651854979888640,0.0,144.44603584706783,-3.4856858010410736,19.54460419447373,871,194,0.0,15,365726313757997,110,14.8,88.53412628173828,2.126000165939331,0,0.0,0.0,,,,,0,,4,,
Raw,918061320,1008271458000000,,,-1195651854979888640,0.0,144.44603584706783,-3.4856858010410736,19.54460419447373,871,1,0.0,783,365712314268290,168,22.9,-7.374316692352295,8.038500785827637,0,0.0,0.0,,,,,0,,5,,
Raw,918061320,1008271458000000,,,-1195651854979888640,0.0,144.44603584706783,-3.4856858010410736,19.54460419447373,871,2,0.0,783,365712313676560,487,20.2,6.923023223876953,7.74500036239624,0,0.0,0.0,,,,,0,,5,,
Raw,918061321,1008271458000000,,,-1195651854979888640,0.0,144.44603584706783,-3.4856858010410736,19.54460419447373,871,3,0.0,783,365712316495822,119,23.5,2.371687889099121,6.6035003662109375,0,0.0,0.0,,,,,0,,5,,
Raw,918061321,1008271458000000,,,-1195651854979888640,0.0,144.44603584706783,-3.4856858010410736,19.54460419447373,871,4,0.0,783,365712309574506,175,18.1,5.204270362854004,7.595000267028809,0,0.0,0.0,,,,,0,,5,,
Raw,918061321,1008271458000000,,,-1195651854979888640,0.0,144.44603584706783,-3.4856858010410736,19.54460419447373,871,5,0.0,783,365712307148913,47,21.9,9.304313659667969,2.194999933242798,0,0.0,0.0,,,,,0,,5,,
Raw,918061321,1008271458000000,,,-1195651854979888640,0.0,144.44603584706783,-3.4856858010410736,19.54460419447373,871,6,0.0,15,365712313523726,53,19.2,16.870668411254883,0.8059999942779541,0,0.0,0.0,,,,,0,,5,,
Raw,918061322,1008271458000000,,,-1195651854979888640,0.0,144.44603584706783,-3.4856858010410736,19.54460419447373,871,7,0.0,15,365712309809797,623,18.0,-292.1880798339844,8.255000114440918,0,0.0,0.0,,,,,0,,5,,
Raw,918061322,1008271458000000,,,-1195651854979888640,0.0,144.44603584706783,-3.4856858010410736,19.54460419447373,871,8,0.0,15,365712311086308,223,23.2,322.1846618652344,9.593000411987305,0,0.0,0.0,,,,,0,,5,,
Raw,918061322,1008271458000000,,,-1195651854979888640,0.0,144.44603584706783,-3.4856858010410736,19.54460419447373,871,9,0.0,15,365712312695089,78,17.4,44.95644760131836,2.434499979019165,0,0.0,0.0,,,,,0,,5,,
Raw,918061323,1008271458000000,,,-1195651854979888640,0.0,144.44603584706783,-3.4856858010410736,19.54460419447373,871,10,0.0,15,365712305557732,1089,15.3,-255.72938537597656,12.979000091552734,0,0.0,0.0,,,,,0,,5,,
Raw,918061323,1008271458000000,,,-1195651854979888640,0.0,144.44603584706783,-3.4856858010410736,19.54460419447373,871,13,0.0,15,365712314763215,46,20.9,274.57806396484375,0.7475000023841858,0,0.0,0.0,,,,,0,,5,,
Raw,918061323,1008271458000000,,,-1195651854979888640,0.0,144.44603584706783,-3.4856858010410736,19.54460419447373,871,14,0.0,15,365712358249070,54,20.5,159.57521057128906,2.253499984741211,0,0.0,0.0,,,,,0,,5,,
Fix,gps,22.327095,114.256270,0.990814,4.010000,15.008000,1512624910000
Raw,918062380,1008272458000000,,,-1195651854979888640,0.0,142.98367023002356,0.5894384604971806,13.913739387197577,871,2,0.0,7183,365726354092692,80,16.3,-167.4679412841797,1.0234999656677246,0,0.0,0.0,,,,,0,,6,,
Raw,918062380,1008272458000000,,,-1195651854979888640,0.0,142.98367023002356,0.5894384604971806,13.913739387197577,871,3,0.0,7183,365726349195576,873,15.0,207.50575256347656,8.122000694274902,0,0.0,0.0,,,,,0,,6,,
Raw,918062381,1008272458000000,,,-1195651854979888640,0.0,142.98367023002356,0.5894384604971806,13.913739387197577,871,7,0.0,7183,365726351285044,42,22.3,-169.29476928710938,2.1449999809265137,0,0.0,0.0,,,,,0,,6,,
Raw,918062381,1008272458000000,,,-1195651854979888640,0.0,142.98367023002356,0.5894384604971806,13.913739387197577,871,8,0.0,7183,365726362902920,61,18.5,31.379426956176758,0.8734999895095825,0,0.0,0.0,,,,,0,,6,,
Raw,918062381,1008272458000000,,,-1195651854979888640,0.0,142.98367023002356,0.5894384604971806,13.913739387197577,871,26,0.0,7183,365726354083559,280,14.1,-269.6746826171875,9.443500518798828,0,0.0,0.0,,,,,0,,6,,
Raw,918062382,1008272458000000,,,-1195651854979888640,0.0,142.98367023002356,0.5894384604971806,13.913739387197577,871,30,0.0,7183,365726357960778,24,25.7,-502.0455627441406,0.4072999954223633,0,0.0,0.0,,,,,0,,6,,
Raw,918062382,1008272458000000,,,-1195651854979888640,0.0,142.98367023002356,0.5894384604971806,13.913739387197577,871,16,0.0,207,30909369959984,35,24.5,-478.6663818359375,2.380000114440918,0,0.0,0.0,,,,,0,,3,,
Raw,918062382,1008272458000000,,,-1195651854979888640,0.0,142.98367023002356,0.5894384604971806,13.913739387197577,871,15,0.0,207,30909365662444,74,17.4,332.7658996582031,2.124000072479248,0,0.0,0.0,,,,,0,,3,,
Raw,918062383,1008272458000000,,,-1195651854979888640,0.0,142.98367023002356,0.5894384604971806,13.913739387197577,871,5,0.0,207,30909366018710,46,20.3,80.03819274902344,1.1255000829696655,0,0.0,0.0,,,,,0,,3,,
Raw,918062383,1008272458000000,,,-1195651854979888640,0.0,142.98367023002356,0.5894384604971806,13.913739387197577,871,21,0.0,207,30909366426167,27,24.5,2.1770811080932617,0.875499963760376,0,0.0,0.0,,,,,0,,3,,
Raw,918062383,1008272458000000,,,-1195651854979888640,0.0,142.98367023002356,0.5894384604971806,13.913739387197577,871,5,0.0,15,365727355728767,40,21.5,393.4226379394531,0.8089999556541443,0,0.0,0.0,,,,,0,,1,,
Raw,918062384,1008272458000000,,,-1195651854979888640,0.0,142.98367023002356,0.5894384604971806,13.913739387197577,871,10,0.0,15,365727355942107,527,11.5,-486.74267578125,13.749000549316406,0,0.0,0.0,,,,,0,,1,,
Raw,918062384,1008272458000000,,,-1195651854979888640,0.0,142.98367023002356,0.5894384604971806,13.913739387197577,871,13,0.0,15,365727356763926,70,17.2,523.25048828125,1.190500020980835,0,0.0,0.0,,,,,0,,1,,
Raw,918062384,1008272458000000,,,-1195651854979888640,0.0,142.98367023002356,0.5894384604971806,13.913739387197577,871,15,0.0,15,365727364655380,19,27.4,372.8987731933594,0.047300003468990326,0,0.0,0.0,,,,,0,,1,,
Raw,918062385,1008272458000000,,,-1195651854979888640,0.0,142.98367023002356,0.5894384604971806,13.913739387197577,871,18,0.0,15,365727363163025,53,19.3,-395.83941650390625,1.0010000467300415,0,0.0,0.0,,,,,0,,1,,
Raw,918062385,1008272458000000,,,-1195651854979888640,0.0,142.98367023002356,0.5894384604971806,13.913739387197577,871,20,0.0,15,365727368365122,812,19.8,88.72442626953125,18.92850112915039,0,0.0,0.0,,,,,0,,1,,
Raw,918062385,1008272458000000,,,-1195651854979888640,0.0,142.98367023002356,0.5894384604971806,13.913739387197577,871,21,0.0,15,365727367226536,49,20.4,-174.9845428466797,1.6770000457763672,0,0.0,0.0,,,,,0,,1,,
Raw,918062386,1008272458000000,,,-1195651854979888640,0.0,142.98367023002356,0.5894384604971806,13.913739387197577,871,24,0.0,15,365727370551303,31,23.0,-38.344173431396484,0.7414999604225159,0,0.0,0.0,,,,,0,,1,,
Raw,918062386,1008272458000000,,,-1195651854979888640,0.0,142.98367023002356,0.5894384604971806,13.913739387197577,871,193,0.0,15,365727309150350,70,17.7,-207.80068969726562,1.0899999141693115,0,0.0,0.0,,,,,0,,4,,
Raw,918062386,1008272458000000,,,-1195651854979888640,0.0,142.98367023002356,0.5894384604971806,13.913739387197577,871,194,0.0,15,365727313757663,70,17.3,83.94805145263672,1.1859999895095825,0,0.0,0.0,,,,,0,,4,,
Raw,918062386,1008272458000000,,,-1195651854979888640,0.0,142.98367023002356,0.5894384604971806,13.913739387197577,871,1,0.0,783,365713314268315,225,22.9,-7.374316692352295,9.538500785827637,0,0.0,0.0,,,,,0,,5,,
Raw,918062387,1008272458000000,,,-1195651854979888640,0.0,142.98367023002356,0.5894384604971806,13.913739387197577,871,2,0.0,783,365713313676511,513,20.0,9.15068244934082,8.494999885559082,0,0.0,0.0,,,,,0,,5,,
Raw,918062387,1008272458000000,,,-1195651854979888640,0.0,142.98367023002356,0.5894384604971806,13.913739387197577,871,3,0.0,783,365713316495814,167,23.5,2.371687889099121,8.103500366210938,0,0.0,0.0,,,,,0,,5,,
Raw,918062387,1008272458000000,,,-1195651854979888640,0.0,142.98367023002356,0.5894384604971806,13.913739387197577,871,4,0.0,783,365713309574488,228,18.1,5.204270362854004,9.095000267028809,0,0.0,0.0,,,,,0,,5,,
Raw,918062388,1008272458000000,,,-1195651854979888640,0.0,142.98367023002356,0.5894384604971806,13.913739387197577,871,5,0.0,783,365713307148882,65,21.9,9.304313659667969,3.695000171661377,0,0.0,0.0,,,,,0,,5,,
Raw,918062388,1008272458000000,,,-1195651854979888640,0.0,142.98367023002356,0.5894384604971806,13.913739387197577,871,6,0.0,15,365713313523721,61,18.9,15.86246109008789,0.8659999966621399,0,0.0,0.0,,,,,0,,5,,
Raw,918062388,1008272458000000,,,-1195651854979888640,0.0,142.98367023002356,0.5894384604971806,13.913739387197577,871,7,0.0,15,365713309810768,215,19.9,-292.19769287109375,8.945000648498535,0,0.0,0.0,,,,,0,,5,,
Raw,918062389,1008272458000000,,,-1195651854979888640,0.0,142.98367023002356,0.5894384604971806,13.913739387197577,871,8,0.0,15,365713311085233,290,23.2,322.1846618652344,11.093000411987305,0,0.0,0.0,,,,,0,,5,,
Raw,918062389,1008272458000000,,,-1195651854979888640,0.0,142.98367023002356,0.5894384604971806,13.913739387197577,871,9,0.0,15,365713312694926,96,15.5,46.81922912597656,1.844499945640564,0,0.0,0.0,,,,,0,,5,,
Raw,918062389,1008272458000000,,,-1195651854979888640,0.0,142.98367023002356,0.5894384604971806,13.913739387197577,871,10,0.0,15,365713305558585,1178,15.3,-255.72938537597656,14.47900104522705,0,0.0,0.0,,,,,0,,5,,
Raw,918062390,1008272458000000,,,-1195651854979888640,0.0,142.98367023002356,0.5894384604971806,13.913739387197577,871,13,0.0,15,365713314762250,27,24.6,273.0609436035156,0.5475000143051147,0,0.0,0.0,,,,,0,,5,,
Raw,918062390,1008272458000000,,,-1195651854979888640,0.0,142.98367023002356,0.5894384604971806,13.913739387197577,871,14,0.0,15,365713358248456,64,18.0,157.86605834960938,1.6234999895095825,0,0.0,0.0,,,,,0,,5,,
Fix,gps,22.327071,114.256328,-3.392334,4.590000,15.008000,1512624911000
Raw,918063367,1008273458000000,,,-1195651854979888640,0.0,144.1111380700022,-0.828596036098279,18.904030998636575,871,2,0.0,7183,365727354093250,89,16.3,-167.4679412841797,2.5235002040863037,0,0.0,0.0,,,,,0,,6,,
Raw,918063367,1008273458000000,,,-1195651854979888640,0.0,144.1111380700022,-0.828596036098279,18.904030998636575,871,3,0.0,7183,365727349194889,1015,14.6,207.59136962890625,8.961999893188477,0,0.0,0.0,,,,,0,,6,,
Raw,918063368,1008273458000000,,,-1195651854979888640,0.0,144.1111380700022,-0.828596036098279,18.904030998636575,871,7,0.0,7183,365727351286005,49,20.2,-161.7305908203125,1.5049999952316284,0,0.0,0.0,,,,,0,,6,,
Raw,918063368,1008273458000000,,,-1195651854979888640,0.0,144.1111380700022,-0.828596036098279,18.904030998636575,871,8,0.0,7183,365727362902638,80,16.6,25.803823471069336,1.0234999656677246,0,0.0,0.0,,,,,0,,6,,
Raw,918063368,1008273458000000,,,-1195651854979888640,0.0,144.1111380700022,-0.828596036098279,18.904030998636575,871,26,0.0,7183,365727354084459,344,14.1,-269.6746826171875,10.943500518798828,0,0.0,0.0,,,,,0,,6,,
Raw,918063369,1008273458000000,,,-1195651854979888640,0.0,144.1111380700022,-0.828596036098279,18.904030998636575,871,30,0.0,7183,365727357962474,35,22.0,-504.47802734375,0.6420000195503235,0,0.0,0.0,,,,,0,,6,,
Raw,918063369,1008273458000000,,,-1195651854979888640,0.0,144.1111380700022,-0.828596036098279,18.904030998636575,871,6,0.0,207,30910365142738,2523,10.4,-222.0122833251953,10.664000511169434,0,0.0,0.0,,,,,0,,3,,
Raw,918063369,1008273458000000,,,-1195651854979888640,0.0,144.1111380700022,-0.828596036098279,18.904030998636575,871,16,0.0,207,30910369961580,53,24.5,-478.6663818359375,3.880000114440918,0,0.0,0.0,,,,,0,,3,,
Raw,918063369,1008273458000000,,,-1195651854979888640,0.0,144.1111380700022,-0.828596036098279,18.904030998636575,871,15,0.0,207,30910365661334,88,17.4,332.7658996582031,3.624000072479248,0,0.0,0.0,,,,,0,,3,,
Raw,918063370,1008273458000000,,,-1195651854979888640,0.0,144.1111380700022,-0.828596036098279,18.904030998636575,871,5,0.0,207,30910366018517,61,18.9,80.09431457519531,1.2855000495910645,0,0.0,0.0,,,,,0,,3,,
Raw,918063370,1008273458000000,,,-1195651854979888640,0.0,144.1111380700022,-0.828596036098279,18.904030998636575,871,21,0.0,207,30910366426146,46,20.5,0.9624006152153015,1.1255000829696655,0,0.0,0.0,,,,,0,,3,,
Raw,918063370,1008273458000000,,,-1195651854979888640,0.0,144.1111380700022,-0.828596036098279,18.904030998636575,871,5,0.0,15,365728355727490,53,19.7,391.99542236328125,0.9389999508857727,0,0.0,0.0,,,,,0,,1,,
Raw,918063371,1008273458000000,,,-1195651854979888640,0.0,144.1111380700022,-0.828596036098279,18.904030998636575,871,10,0.0,15,365728355943731,618,11.5,-486.74267578125,15.249000549316406,0,0.0,0.0,,,,,0,,1,,
Raw,918063371,1008273458000000,,,-1195651854979888640,0.0,144.1111380700022,-0.828596036098279,18.904030998636575,871,13,0.0,15,365728356762181,79,17.2,523.25048828125,2.690500020980835,0,0.0,0.0,,,,,0,,1,,
Raw,918063371,1008273458000000,,,-1195651854979888640,0.0,144.1111380700022,-0.828596036098279,18.904030998636575,871,15,0.0,15,365728364653721,31,23.7,373.8319091796875,0.67249995470047,0,0.0,0.0,,,,,0,,1,,
Raw,918063372,1008273458000000,,,-1195651854979888640,0.0,144.1111380700022,-0.828596036098279,18.904030998636575,871,18,0.0,15,365728363164551,46,20.3,-396.0201721191406,0.9210000038146973,0,0.0,0.0,,,,,0,,1,,
Raw,918063372,1008273458000000,,,-1195651854979888640,0.0,144.1111380700022,-0.828596036098279,18.904030998636575,871,20,0.0,15,365728368364826,940,19.8,88.72442626953125,20.42850112915039,0,0.0,0.0,,,,,0,,1,,
Raw,918063372,1008273458000000,,,-1195651854979888640,0.0,144.1111380700022,-0.828596036098279,18.904030998636575,871,21,0.0,15,365728367227095,40,21.3,-173.7952117919922,0.8569999933242798,0,0.0,0.0,,,,,0,,1,,
Raw,918063372,1008273458000000,,,-1195651854979888640,0.0,144.1111380700022,-0.828596036098279,18.904030998636575,871,24,0.0,15,365728370551429,35,22.4,-38.772335052490234,0.8014999628067017,0,0.0,0.0,,,,,0,,1,,
Raw,918063373,1008273458000000,,,-1195651854979888640,0.0,144.1111380700022,-0.828596036098279,18.904030998636575,871,193,0.0,15,365728309151043,79,17.7,-207.80068969726562,2.5899999141693115,0,0.0,0.0,,,,,0,,4,,
Raw,918063373,1008273458000000,,,-1195651854979888640,0.0,144.1111380700022,-0.828596036098279,18.904030998636575,871,194,0.0,15,365728313757383,79,17.3,83.94805145263672,2.686000108718872,0,0.0,0.0,,,,,0,,4,,
Raw,918063373,1008273458000000,,,-1195651854979888640,0.0,144.1111380700022,-0.828596036098279,18.904030998636575,871,1,0.0,783,365714314268304,47,21.3,-5.88601016998291,2.118499994277954,0,0.0,0.0,,,,,0,,5,,
Raw,918063374,1008273458000000,,,-1195651854979888640,0.0,144.1111380700022,-0.828596036098279,18.904030998636575,871,2,0.0,783,365714313676516,599,19.8,7.6623759269714355,9.305000305175781,0,0.0,0.0,,,,,0,,5,,
Raw,918063374,1008273458000000,,,-1195651854979888640,0.0,144.1111380700022,-0.828596036098279,18.904030998636575,871,3,0.0,783,365714316495806,224,23.5,2.371687889099121,9.603500366210938,0,0.0,0.0,,,,,0,,5,,
Raw,918063374,1008273458000000,,,-1195651854979888640,0.0,144.1111380700022,-0.828596036098279,18.904030998636575,871,4,0.0,783,365714309574471,291,18.1,5.204270362854004,10.595000267028809,0,0.0,0.0,,,,,0,,5,,
Raw,918063375,1008273458000000,,,-1195651854979888640,0.0,144.1111380700022,-0.828596036098279,18.904030998636575,871,5,0.0,783,365714307148851,92,21.9,9.304313659667969,5.195000171661377,0,0.0,0.0,,,,,0,,5,,
Raw,918063375,1008273458000000,,,-1195651854979888640,0.0,144.1111380700022,-0.828596036098279,18.904030998636575,871,6,0.0,15,365714313523468,61,18.4,10.68699836730957,0.8659999966621399,0,0.0,0.0,,,,,0,,5,,
Raw,918063375,1008273458000000,,,-1195651854979888640,0.0,144.1111380700022,-0.828596036098279,18.904030998636575,871,7,0.0,15,365714309811743,277,19.9,-292.19769287109375,10.445000648498535,0,0.0,0.0,,,,,0,,5,,
Raw,918063375,1008273458000000,,,-1195651854979888640,0.0,144.1111380700022,-0.828596036098279,18.904030998636575,871,8,0.0,15,365714311084158,368,23.2,322.1846618652344,12.593000411987305,0,0.0,0.0,,,,,0,,5,,
Raw,918063376,1008273458000000,,,-1195651854979888640,0.0,144.1111380700022,-0.828596036098279,18.904030998636575,871,9,0.0,15,365714312694783,61,18.7,44.71639633178711,0.8644999861717224,0,0.0,0.0,,,,,0,,5,,
Raw,918063376,1008273458000000,,,-1195651854979888640,0.0,144.1111380700022,-0.828596036098279,18.904030998636575,871,10,0.0,15,365714305559438,1276,15.3,-255.72938537597656,15.97900104522705,0,0.0,0.0,,,,,0,,5,,
Raw,918063377,1008273458000000,,,-1195651854979888640,0.0,144.1111380700022,-0.828596036098279,18.904030998636575,871,13,0.0,15,365714314761376,24,25.7,272.69744873046875,0.4027999937534332,0,0.0,0.0,,,,,0,,5,,
Raw,918063378,1008273458000000,,,-1195651854979888640,0.0,144.1111380700022,-0.828596036098279,18.904030998636575,871,14,0.0,15,365714358247994,53,19.7,155.51358032226562,0.8134999871253967,0,0.0,0.0,,,,,0,,5,,
Fix,gps,22.327047,114.256395,-6.862366,5.050000,16.080000,1512624912000
Raw,918064372,1008274458000000,,,-1195651854979888640,0.0,142.9195690434426,-3.649592359169172,20.514508693750777,871,2,0.0,7183,365728354093873,110,14.4,-167.4679412841797,1.94350004196167,0,0.0,0.0,,,,,0,,6,,
Raw,918064373,1008274458000000,,,-1195651854979888640,0.0,142.9195690434426,-3.649592359169172,20.514508693750777,871,3,0.0,7183,365728349194215,1044,14.3,207.31544494628906,9.712000846862793,0,0.0,0.0,,,,,0,,6,,
Raw,918064373,1008274458000000,,,-1195651854979888640,0.0,142.9195690434426,-3.649592359169172,20.514508693750777,871,7,0.0,7183,365728351286521,70,17.9,-161.13116455078125,0.9449999928474426,0,0.0,0.0,,,,,0,,6,,
Raw,918064373,1008274458000000,,,-1195651854979888640,0.0,142.9195690434426,-3.649592359169172,20.514508693750777,871,8,0.0,7183,365728362902497,70,17.7,27.19296646118164,0.9434999823570251,0,0.0,0.0,,,,,0,,6,,
Raw,918064374,1008274458000000,,,-1195651854979888640,0.0,142.9195690434426,-3.649592359169172,20.514508693750777,871,26,0.0,7183,365728354085358,419,14.1,-269.6746826171875,12.443500518798828,0,0.0,0.0,,,,,0,,6,,
Raw,918064374,1008274458000000,,,-1195651854979888640,0.0,142.9195690434426,-3.649592359169172,20.514508693750777,871,30,0.0,7183,365728357964149,19,27.4,-503.8947448730469,0.06680000573396683,0,0.0,0.0,,,,,0,,6,,
Raw,918064374,1008274458000000,,,-1195651854979888640,0.0,142.9195690434426,-3.649592359169172,20.514508693750777,871,6,0.0,207,30911365143498,432,10.4,-222.19967651367188,11.789000511169434,0,0.0,0.0,,,,,0,,3,,
Raw,918064375,1008274458000000,,,-1195651854979888640,0.0,142.9195690434426,-3.649592359169172,20.514508693750777,871,16,0.0,207,30911369963177,81,24.5,-478.6663818359375,5.380000114440918,0,0.0,0.0,,,,,0,,3,,
Raw,918064375,1008274458000000,,,-1195651854979888640,0.0,142.9195690434426,-3.649592359169172,20.514508693750777,871,15,0.0,207,30911365660873,38,22.3,329.4722900390625,1.74399995803833,0,0.0,0.0,,,,,0,,3,,
Raw,918064375,1008274458000000,,,-1195651854979888640,0.0,142.9195690434426,-3.649592359169172,20.514508693750777,871,5,0.0,207,30911366018250,70,18.9,80.09431457519531,2.7855000495910645,0,0.0,0.0,,,,,0,,3,,
Raw,918064376,1008274458000000,,,-1195651854979888640,0.0,142.9195690434426,-3.649592359169172,20.514508693750777,871,20,0.0,207,30911365965614,367,23.4,600.5853881835938,1.1139999628067017,0,0.0,0.0,,,,,0,,3,,
Raw,918064376,1008274458000000,,,-1195651854979888640,0.0,142.9195690434426,-3.649592359169172,20.514508693750777,871,21,0.0,207,30911366426384,61,18.7,12.772830963134766,1.2855000495910645,0,0.0,0.0,,,,,0,,3,,
Raw,918064376,1008274458000000,,,-1195651854979888640,0.0,142.9195690434426,-3.649592359169172,20.514508693750777,871,5,0.0,15,365729355726183,61,19.7,391.99542236328125,2.439000129699707,0,0.0,0.0,,,,,0,,1,,
Raw,918064377,1008274458000000,,,-1195651854979888640,0.0,142.9195690434426,-3.649592359169172,20.514508693750777,871,10,0.0,15,365729355945560,92,19.5,-482.3659362792969,4.689000129699707,0,0.0,0.0,,,,,0,,1,,
Raw,918064377,1008274458000000,,,-1195651854979888640,0.0,142.9195690434426,-3.649592359169172,20.514508693750777,871,13,0.0,15,365729356760435,98,17.2,523.25048828125,4.190500259399414,0,0.0,0.0,,,,,0,,1,,
Raw,918064377,1008274458000000,,,-1195651854979888640,0.0,142.9195690434426,-3.649592359169172,20.514508693750777,871,15,0.0,15,365729364652586,35,22.9,374.3932800292969,0.7324999570846558,0,0.0,0.0,,,,,0,,1,,
Raw,918064377,1008274458000000,,,-1195651854979888640,0.0,142.9195690434426,-3.649592359169172,20.514508693750777,871,18,0.0,15,365729363165858,31,23.7,-393.5463562011719,0.6710000038146973,0,0.0,0.0,,,,,0,,1,,
Raw,918064378,1008274458000000,,,-1195651854979888640,0.0,142.9195690434426,-3.649592359169172,20.514508693750777,871,20,0.0,15,365729368364606,96,15.2,88.43898010253906,2.121500015258789,0,0.0,0.0,,,,,0,,1,,
Raw,918064378,1008274458000000,,,-1195651854979888640,0.0,142.9195690434426,-3.649592359169172,20.514508693750777,871,21,0.0,15,365729367227836,40,21.2,-172.78665161132812,0.8569999933242798,0,0.0,0.0,,,,,0,,1,,
Raw,918064378,1008274458000000,,,-1195651854979888640,0.0,142.9195690434426,-3.649592359169172,20.514508693750777,871,24,0.0,15,365729370551634,53,19.9,-37.87795639038086,0.9314999580383301,0,0.0,0.0,,,,,0,,1,,
Raw,918064379,1008274458000000,,,-1195651854979888640,0.0,142.9195690434426,-3.649592359169172,20.514508693750777,871,193,0.0,15,365729309151844,64,18.2,-207.2393341064453,1.840000033378601,0,0.0,0.0,,,,,0,,4,,
Raw,918064379,1008274458000000,,,-1195651854979888640,0.0,142.9195690434426,-3.649592359169172,20.514508693750777,871,194,0.0,15,365729313757103,98,17.3,83.94805145263672,4.186000347137451,0,0.0,0.0,,,,,0,,4,,
Raw,918064380,1008274458000000,,,-1195651854979888640,0.0,142.9195690434426,-3.649592359169172,20.514508693750777,871,1,0.0,783,365715314268323,64,21.3,-5.88601016998291,3.618500232696533,0,0.0,0.0,,,,,0,,5,,
Raw,918064380,1008274458000000,,,-1195651854979888640,0.0,142.9195690434426,-3.649592359169172,20.514508693750777,871,2,0.0,783,365715313676482,277,19.7,7.499141693115234,10.430000305175781,0,0.0,0.0,,,,,0,,5,,
Raw,918064380,1008274458000000,,,-1195651854979888640,0.0,142.9195690434426,-3.649592359169172,20.514508693750777,871,3,0.0,783,365715316495799,291,23.5,2.371687889099121,11.103500366210938,0,0.0,0.0,,,,,0,,5,,
Raw,918064380,1008274458000000,,,-1195651854979888640,0.0,142.9195690434426,-3.649592359169172,20.514508693750777,871,4,0.0,783,365715309574454,364,18.1,5.204270362854004,12.095000267028809,0,0.0,0.0,,,,,0,,5,,
Raw,918064381,1008274458000000,,,-1195651854979888640,0.0,142.9195690434426,-3.649592359169172,20.514508693750777,871,5,0.0,783,365715307148756,31,25.4,13.346744537353516,2.0250000953674316,0,0.0,0.0,,,,,0,,5,,
Raw,918064381,1008274458000000,,,-1195651854979888640,0.0,142.9195690434426,-3.649592359169172,20.514508693750777,871,6,0.0,15,365715313523621,46,20.4,17.667633056640625,0.7459999918937683,0,0.0,0.0,,,,,0,,5,,
Raw,918064381,1008274458000000,,,-1195651854979888640,0.0,142.9195690434426,-3.649592359169172,20.514508693750777,871,7,0.0,15,365715309812780,42,21.0,-294.7422180175781,1.399999976158142,0,0.0,0.0,,,,,0,,5,,
Raw,918064382,1008274458000000,,,-1195651854979888640,0.0,142.9195690434426,-3.649592359169172,20.514508693750777,871,8,0.0,15,365715311083084,455,23.2,322.1846618652344,14.093000411987305,0,0.0,0.0,,,,,0,,5,,
Raw,918064382,1008274458000000,,,-1195651854979888640,0.0,142.9195690434426,-3.649592359169172,20.514508693750777,871,9,0.0,15,365715312694599,46,20.1,48.480369567871094,0.7444999814033508,0,0.0,0.0,,,,,0,,5,,
Raw,918064382,1008274458000000,,,-1195651854979888640,0.0,142.9195690434426,-3.649592359169172,20.514508693750777,871,10,0.0,15,365715305560291,1384,15.3,-255.72938537597656,17.479000091552734,0,0.0,0.0,,,,,0,,5,,
Raw,918064383,1008274458000000,,,-1195651854979888640,0.0,142.9195690434426,-3.649592359169172,20.514508693750777,871,13,0.0,15,365715314760452,21,26.8,274.23779296875,0.13220000267028809,0,0.0,0.0,,,,,0,,5,,
Raw,918064383,1008274458000000,,,-1195651854979888640,0.0,142.9195690434426,-3.649592359169172,20.514508693750777,871,14,0.0,15,365715358247475,61,19.7,155.51358032226562,2.313500165939331,0,0.0,0.0,,,,,0,,5,,
Fix,gps,22.327007,114.256465,-11.932098,5.870000,16.080000,1512624913000
Raw,918065291,1008275458000000,,,-1195651854979888640,0.0,138.38747690897435,-8.868235546723364,21.00966516536627,871,2,0.0,7183,365729354094432,124,14.4,-167.4679412841797,3.44350004196167,0,0.0,0.0,,,,,0,,6,,
Raw,918065291,1008275458000000,,,-1195651854979888640,0.0,138.38747690897435,-8.868235546723364,21.00966516536627,871,3,0.0,7183,365729349193526,340,14.0,207.47720336914062,10.837000846862793,0,0.0,0.0,,,,,0,,6,,
Raw,918065294,1008275458000000,,,-1195651854979888640,0.0,138.38747690897435,-8.868235546723364,21.00966516536627,871,7,0.0,7183,365729351287055,61,18.6,-158.97132873535156,0.875,0,0.0,0.0,,,,,0,,6,,
Raw,918065295,1008275458000000,,,-1195651854979888640,0.0,138.38747690897435,-8.868235546723364,21.00966516536627,871,8,0.0,7183,365729362902421,53,19.6,25.442262649536133,0.8134999871253967,0,0.0,0.0,,,,,0,,6,,
Raw,918065295,1008275458000000,,,-1195651854979888640,0.0,138.38747690897435,-8.868235546723364,21.00966516536627,871,26,0.0,7183,365729354085906,87,18.1,-264.7460632324219,3.873500108718872,0,0.0,0.0,,,,,0,,6,,
Raw,918065295,1008275458000000,,,-1195651854979888640,0.0,138.38747690897435,-8.868235546723364,21.00966516536627,871,30,0.0,7183,365729357965841,14,30.0,-505.5527648925781,0.05130000039935112,0,0.0,0.0,,,,,0,,6,,
Raw,918065295,1008275458000000,,,-1195651854979888640,0.0,138.38747690897435,-8.868235546723364,21.00966516536627,871,6,0.0,207,30912365144239,508,10.4,-222.19967651367188,13.289000511169434,0,0.0,0.0,,,,,0,,3,,
Raw,918065296,1008275458000000,,,-1195651854979888640,0.0,138.38747690897435,-8.868235546723364,21.00966516536627,871,16,0.0,207,30912369964794,99,16.0,-480.9783630371094,3.7200002670288086,0,0.0,0.0,,,,,0,,3,,
Raw,918065296,1008275458000000,,,-1195651854979888640,0.0,138.38747690897435,-8.868235546723364,21.00966516536627,871,15,0.0,207,30912365659649,61,18.3,330.4828186035156,1.284000039100647,0,0.0,0.0,,,,,0,,3,,
Raw,918065296,1008275458000000,,,-1195651854979888640,0.0,138.38747690897435,-8.868235546723364,21.00966516536627,871,5,0.0,207,30912366017983,90,18.9,80.09431457519531,4.2855000495910645,0,0.0,0.0,,,,,0,,3,,
Raw,918065296,1008275458000000,,,-1195651854979888640,0.0,138.38747690897435,-8.868235546723364,21.00966516536627,871,20,0.0,207,30912365963611,376,23.4,600.5853881835938,2.614000082015991,0,0.0,0.0,,,,,0,,3,,
Raw,918065296,1008275458000000,,,-1195651854979888640,0.0,138.38747690897435,-8.868235546723364,21.00966516536627,871,21,0.0,207,30912366426308,35,22.3,11.894523620605469,0.9954999685287476,0,0.0,0.0,,,,,0,,3,,
Raw,918065297,1008275458000000,,,-1195651854979888640,0.0,138.38747690897435,-8.868235546723364,21.00966516536627,871,5,0.0,15,365730355724875,79,19.7,391.99542236328125,3.939000129699707,0,0.0,0.0,,,,,0,,1,,
Raw,918065297,1008275458000000,,,-1195651854979888640,0.0,138.38747690897435,-8.868235546723364,21.00966516536627,871,10,0.0,15,365730355947241,46,20.2,-481.01483154296875,0.9389999508857727,0,0.0,0.0,,,,,0,,1,,
Raw,918065297,1008275458000000,,,-1195651854979888640,0.0,138.38747690897435,-8.868235546723364,21.00966516536627,871,13,0.0,15,365730356758690,127,17.2,523.25048828125,5.690500259399414,0,0.0,0.0,,,,,0,,1,,
Raw,918065297,1008275458000000,,,-1195651854979888640,0.0,138.38747690897435,-8.868235546723364,21.00966516536627,871,15,0.0,15,365730364651739,24,25.8,372.1097717285156,0.5824999809265137,0,0.0,0.0,,,,,0,,1,,
Raw,918065297,1008275458000000,,,-1195651854979888640,0.0,138.38747690897435,-8.868235546723364,21.00966516536627,871,18,0.0,15,365730363167069,35,22.7,-394.42169189453125,0.7310000061988831,0,0.0,0.0,,,,,0,,1,,
Raw,918065298,1008275458000000,,,-1195651854979888640,0.0,138.38747690897435,-8.868235546723364,21.00966516536627,871,20,0.0,15,365730368364291,46,20.8,89.27627563476562,0.8614999651908875,0,0.0,0.0,,,,,0,,1,,
Raw,918065298,1008275458000000,,,-1195651854979888640,0.0,138.38747690897435,-8.868235546723364,21.00966516536627,871,21,0.0,15,365730367228344,70,17.9,-172.62490844726562,1.0869998931884766,0,0.0,0.0,,,,,0,,1,,
Raw,918065298,1008275458000000,,,-1195651854979888640,0.0,138.38747690897435,-8.868235546723364,21.00966516536627,871,24,0.0,15,365730370551620,35,22.2,-38.258541107177734,0.8014999628067017,0,0.0,0.0,,,,,0,,1,,
Raw,918065298,1008275458000000,,,-1195651854979888640,0.0,138.38747690897435,-8.868235546723364,21.00966516536627,871,193,0.0,15,365730309152483,53,19.3,-206.45913696289062,1.0099999904632568,0,0.0,0.0,,,,,0,,4,,
Raw,918065299,1008275458000000,,,-1195651854979888640,0.0,138.38747690897435,-8.868235546723364,21.00966516536627,871,194,0.0,15,365730313756823,127,17.3,83.94805145263672,5.686000347137451,0,0.0,0.0,,,,,0,,4,,
Raw,918065299,1008275458000000,,,-1195651854979888640,0.0,138.38747690897435,-8.868235546723364,21.00966516536627,871,1,0.0,783,365716314268343,91,21.3,-5.88601016998291,5.118500232696533,0,0.0,0.0,,,,,0,,5,,
Raw,918065299,1008275458000000,,,-1195651854979888640,0.0,138.38747690897435,-8.868235546723364,21.00966516536627,871,2,0.0,783,365716313676457,349,19.7,7.499141693115234,11.930000305175781,0,0.0,0.0,,,,,0,,5,,
Raw,918065299,1008275458000000,,,-1195651854979888640,0.0,138.38747690897435,-8.868235546723364,21.00966516536627,871,3,0.0,783,365716316495791,368,23.5,2.371687889099121,12.603500366210938,0,0.0,0.0,,,,,0,,5,,
Raw,918065300,1008275458000000,,,-1195651854979888640,0.0,138.38747690897435,-8.868235546723364,21.00966516536627,871,4,0.0,783,365716309574735,124,17.3,-4.8297929763793945,5.414999961853027,0,0.0,0.0,,,,,0,,5,,
Raw,918065300,1008275458000000,,,-1195651854979888640,0.0,138.38747690897435,-8.868235546723364,21.00966516536627,871,5,0.0,783,365716307148711,48,25.4,13.346744537353516,3.5250000953674316,0,0.0,0.0,,,,,0,,5,,
Raw,918065300,1008275458000000,,,-1195651854979888640,0.0,138.38747690897435,-8.868235546723364,21.00966516536627,871,6,0.0,15,365716313523532,40,21.0,18.541414260864258,0.6859999895095825,0,0.0,0.0,,,,,0,,5,,
Raw,918065300,1008275458000000,,,-1195651854979888640,0.0,138.38747690897435,-8.868235546723364,21.00966516536627,871,7,0.0,15,365716309813796,70,17.4,-293.29229736328125,0.9300000071525574,0,0.0,0.0,,,,,0,,5,,
Raw,918065300,1008275458000000,,,-1195651854979888640,0.0,138.38747690897435,-8.868235546723364,21.00966516536627,871,8,0.0,15,365716311081996,211,15.2,322.4342956542969,7.843000411987305,0,0.0,0.0,,,,,0,,5,,
Raw,918065301,1008275458000000,,,-1195651854979888640,0.0,138.38747690897435,-8.868235546723364,21.00966516536627,871,9,0.0,15,365716312694435,61,18.1,47.606590270996094,0.8644999861717224,0,0.0,0.0,,,,,0,,5,,
Raw,918065301,1008275458000000,,,-1195651854979888640,0.0,138.38747690897435,-8.868235546723364,21.00966516536627,871,10,0.0,15,365716305561144,1502,15.3,-255.72938537597656,18.979000091552734,0,0.0,0.0,,,,,0,,5,,
Raw,918065301,1008275458000000,,,-1195651854979888640,0.0,138.38747690897435,-8.868235546723364,21.00966516536627,871,13,0.0,15,365716314759529,17,28.7,274.639892578125,0.05430000275373459,0,0.0,0.0,,,,,0,,5,,
Raw,918065301,1008275458000000,,,-1195651854979888640,0.0,138.38747690897435,-8.868235546723364,21.00966516536627,871,14,0.0,15,365716358246967,73,17.5,157.38595581054688,1.69350004196167,0,0.0,0.0,,,,,0,,5,,
Fix,gps,22.326975,114.256723,11.226257,10.680000,15.008000,1512624914000
Raw,918066342,1008276458000000,,,-1195651854979888640,0.0,130.41503552813083,-2.7710083300212256,19.280592318035325,871,2,0.0,7183,365730354094739,73,17.6,-161.3309783935547,1.69350004196167,0,0.0,0.0,,,,,0,,6,,
